airport_code,airport_name,latitude,longitude
CDG,Paris Charles de Gaulle,49.0097,2.5479
LHR,London Heathrow,51.47,-0.4543
JFK,New York JFK,40.6413,-73.7781
LAX,Los Angeles LAX,33.9416,-118.4085
DXB,Dubai Intl,25.2532,55.3657
HND,Tokyo Haneda,35.5494,139.7798
SIN,Singapore Changi,1.3644,103.9915
FRA,Frankfurt Intl,50.0379,8.5622
AMS,Amsterdam Schiphol,52.3105,4.7683
MAD,Madrid Barajas,40.4983,-3.5676
